[
  {
    "name": "Test Bar",
    "deal": "$1 beers",
    "address": "Youngstown Ohio",
    "day": "sunday",
    "lat": 41.0998,
    "lng": -80.6495,
    "validated": true
  },
  {
    "name": "Corner Tavern",
    "deal": "$1.75 cans",
    "address": "Leetonia Ohio",
    "day": "monday",
    "lat": 40.877,
    "lng": -80.755,
    "validated": false
  },
  {
    "name": "Till Then Lounge",
    "deal": "$1.50 cans",
    "address": "Boardman Ohio",
    "day": "sunday",
    "lat": 41.024,
    "lng": -80.662,
    "validated": false
  },
  {
    "name": "Steel City",
    "deal": "$2 bottles",
    "address": "Youngstown Ohio",
    "day": "friday",
    "lat": 41.0998,
    "lng": -80.6495,
    "validated": false
  },
  {
    "name": "Brickhouse Tavern",
    "deal": "$2 beers",
    "address": "Youngstown Ohio",
    "day": "sunday",
    "lat": 41.0998,
    "lng": -80.6495,
    "validated": false
  },
  {
    "name": "Los Gallos",
    "deal": "$2 bottles",
    "address": "Boardman Ohio",
    "day": "monday",
    "lat": 41.024,
    "lng": -80.662,
    "validated": false
  },
  {
    "name": "Los Gallos",
    "deal": "$2 bottles",
    "address": "Boardman Ohio",
    "day": "tuesday",
    "lat": 41.024,
    "lng": -80.662,
    "validated": false
  },
  {
    "name": "Los Gallos",
    "deal": "$2 bottles",
    "address": "Boardman Ohio",
    "day": "wednesday",
    "lat": 41.024,
    "lng": -80.662,
    "validated": false
  },
  {
    "name": "Los Gallos",
    "deal": "$2 bottles",
    "address": "Boardman Ohio",
    "day": "thursday",
    "lat": 41.024,
    "lng": -80.662,
    "validated": false
  }
]
