[
  {
    "name": "Corner Tavern",
    "deal": "$1.75 cans",
    "address": "Leetonia, Ohio",
    "day": "monday",
    "lat": 40.8770,
    "lng": -80.7556
  },
  {
    "name": "Los Galos",
    "deal": "$2 bottles",
    "address": "Boardman, Ohio",
    "day": "monday",
    "lat": 41.0242,
    "lng": -80.6629
  },
  {
    "name": "Los Galos",
    "deal": "$2 bottles",
    "address": "Boardman, Ohio",
    "day": "tuesday",
    "lat": 41.0242,
    "lng": -80.6629
  },
  {
    "name": "Los Galos",
    "deal": "$2 bottles",
    "address": "Boardman, Ohio",
    "day": "wednesday",
    "lat": 41.0242,
    "lng": -80.6629
  },
  {
    "name": "Los Galos",
    "deal": "$2 bottles",
    "address": "Boardman, Ohio",
    "day": "thursday",
    "lat": 41.0242,
    "lng": -80.6629
  },
  {
    "name": "Brick House Tavern",
    "deal": "$2.50 bottles",
    "address": "Youngstown, Ohio",
    "day": "friday",
    "lat": 41.0998,
    "lng": -80.6495
  },
  {
    "name": "Steel City",
    "deal": "$2 bottles from 2pm to 8pm",
    "address": "Youngstown, Ohio",
    "day": "saturday",
    "lat": 41.0998,
    "lng": -80.6495
  },
  {
    "name": "Lanai Lounge",
    "deal": "$1.50 cans",
    "address": "Youngstown, Ohio",
    "day": "sunday",
    "lat": 41.0998,
    "lng": -80.6495
  }
]
